[
  {
    "name": "Admiral Seymour Elementary",
    "latitude": 49.27859427,
    "longitude": -123.0803143,
    "address": "1130 Keefer St",
    "schoolCategory": "Public School"
  },
  {
    "name": "Admiral Seymour StrongStart Centre",
    "latitude": 49.27859427,
    "longitude": -123.0803143,
    "address": "1130 Keefer St",
    "schoolCategory": "StrongStart BC"
  },
  {
    "name": "Alexander Academy",
    "latitude": 49.2850006001823,
    "longitude": -123.114009854193,
    "address": "688 W Hastings St",
    "schoolCategory": "Independent School"
  },
  {
    "name": "Anchor Point Montessori",
    "latitude": 49.277061848292,
    "longitude": -123.130918922266,
    "address": "1351 Hornby St",
    "schoolCategory": "Independent School"
  },
  {
    "name": "BC Children's Adol. Psych. Unit",
    "latitude": 49.239630962,
    "longitude": -123.12579096,
    "address": "5025 Willow St",
    "schoolCategory": "Public School"
  },
  {
    "name": "BC Childrens Hosp School Program",
    "latitude": 49.239630962,
    "longitude": -123.12579096,
    "address": "5025 Willow St",
    "schoolCategory": "Public School"
  },
  {
    "name": "BCCH Eating Disorders School Program",
    "latitude": 49.239630962,
    "longitude": -123.12579096,
    "address": "5025 Willow St",
    "schoolCategory": "Public School"
  },
  {
    "name": "Bayview Community Elementary",
    "latitude": 49.266487007,
    "longitude": -123.18233379,
    "address": "2251 Collingwood St",
    "schoolCategory": "Public School"
  },
  {
    "name": "Blessed Sacrament School",
    "latitude": 49.2583379084058,
    "longitude": -123.119390910334,
    "address": "3020 Heather St",
    "schoolCategory": "Independent School"
  },
  {
    "name": "Britannia Community Elementary",
    "latitude": 49.2745120095296,
    "longitude": -123.071378795422,
    "address": "1110 Cotton Drive",
    "schoolCategory": "Public School"
  },
  {
    "name": "Britannia Community Secondary",
    "latitude": 49.2752359917843,
    "longitude": -123.07192309841,
    "address": "1001 Cotton Drive",
    "schoolCategory": "Public School"
  },
  {
    "name": "Canuck Place School Program",
    "latitude": 49.2516695267534,
    "longitude": -123.143062399514,
    "address": "1690 Matthews Av",
    "schoolCategory": "Public School"
  },
  {
    "name": "Captain James Cook Elementary",
    "latitude": 49.2193808,
    "longitude": -123.03582905,
    "address": "3340 E 54th Av",
    "schoolCategory": "Public School"
  },
  {
    "name": "Captain James Cook StrongStart Centre",
    "latitude": 49.2193808,
    "longitude": -123.03582905,
    "address": "3340 E 54th Av",
    "schoolCategory": "StrongStart BC"
  },
  {
    "name": "Carnarvon Community Elementary",
    "latitude": 49.2565874222733,
    "longitude": -123.173557238565,
    "address": "3400 Balaclava St",
    "schoolCategory": "Public School"
  },
  {
    "name": "Century High School",
    "latitude": 49.2633847590135,
    "longitude": -123.145314402697,
    "address": "1788 W Broadway",
    "schoolCategory": "Independent School"
  },
  {
    "name": "Champlain Heights Annex",
    "latitude": 49.2140784326839,
    "longitude": -123.030549689398,
    "address": "7835 Champlain Crescent",
    "schoolCategory": "Public School"
  },
  {
    "name": "Champlain Heights Annex StrongStart Cntr",
    "latitude": 49.2140784326839,
    "longitude": -123.030549689398,
    "address": "7835 Champlain Crescent",
    "schoolCategory": "StrongStart BC"
  },
  {
    "name": "Champlain Heights Community Elementary",
    "latitude": 49.220640302,
    "longitude": -123.02774835,
    "address": "6955 Frontenac St",
    "schoolCategory": "Public School"
  },
  {
    "name": "Charles Dickens Annex",
    "latitude": 49.250213062,
    "longitude": -123.08271031,
    "address": "3877 Glen Drive",
    "schoolCategory": "Public School"
  },
  {
    "name": "Charles Dickens Elementary",
    "latitude": 49.2548545009348,
    "longitude": -123.082390632702,
    "address": "1010 E 17th Av",
    "schoolCategory": "Public School"
  },
  {
    "name": "Chief Maquinna Annex",
    "latitude": 49.266421544,
    "longitude": -123.04511809,
    "address": "2882 E 4th Av",
    "schoolCategory": "Public School"
  },
  {
    "name": "Chief Maquinna Elementary",
    "latitude": 49.267886314,
    "longitude": -123.05058984,
    "address": "2684 E 2nd Av",
    "schoolCategory": "Public School"
  },
  {
    "name": "Chief Maquinna StrongStart Centre",
    "latitude": 49.267886314,
    "longitude": -123.05058984,
    "address": "2684 E 2nd Av",
    "schoolCategory": "StrongStart BC"
  },
  {
    "name": "Children's Hearing and Speech Centre BC",
    "latitude": 49.2523579694012,
    "longitude": -123.048349437246,
    "address": "3575 Kaslo St",
    "schoolCategory": "Independent School"
  },
  {
    "name": "Collingwood Neighbourhood School",
    "latitude": 49.2363486,
    "longitude": -123.032313,
    "address": "3417 Euclid Av",
    "schoolCategory": "Public School"
  },
  {
    "name": "Collingwood StrongStart Centre",
    "latitude": 49.2363486,
    "longitude": -123.032313,
    "address": "3417 Euclid Av",
    "schoolCategory": "StrongStart BC"
  },
  {
    "name": "Columbia College",
    "latitude": 49.2715596220529,
    "longitude": -123.095077685046,
    "address": "438 Terminal Av",
    "schoolCategory": "Independent School"
  },
  {
    "name": "Continuing Ed SD 39",
    "latitude": 49.2632998832549,
    "longitude": -123.140260520019,
    "address": "1580 W Broadway",
    "schoolCategory": "Public School"
  },
  {
    "name": "Corpus Christi School",
    "latitude": 49.2264061050907,
    "longitude": -123.057583540366,
    "address": "6344 Nanaimo St",
    "schoolCategory": "Independent School"
  },
  {
    "name": "Crofton House",
    "latitude": 49.233677834517,
    "longitude": -123.177218159076,
    "address": "3200 W 41st Av",
    "schoolCategory": "Independent School"
  },
  {
    "name": "Crosstown Elementary",
    "latitude": 49.278631,
    "longitude": -123.106594,
    "address": "55 Expo Blvd",
    "schoolCategory": "Public School"
  },
  {
    "name": "David Livingstone Elementary",
    "latitude": 49.250753337,
    "longitude": -123.09798144,
    "address": "315 E 23rd Av",
    "schoolCategory": "Public School"
  },
  {
    "name": "David Lloyd George Elementary",
    "latitude": 49.209962412,
    "longitude": -123.13634891,
    "address": "8370 Cartier St",
    "schoolCategory": "Public School"
  },
  {
    "name": "David Lloyd George StrongStart Centre",
    "latitude": 49.209962412,
    "longitude": -123.13634891,
    "address": "8370 Cartier St",
    "schoolCategory": "StrongStart BC"
  },
  {
    "name": "David Oppenheimer Elementary",
    "latitude": 49.2133181112521,
    "longitude": -123.058293310213,
    "address": "2421 Scarboro Av",
    "schoolCategory": "Public School"
  },
  {
    "name": "David Thompson Secondary",
    "latitude": 49.220439257,
    "longitude": -123.0706316,
    "address": "1755 E 55th Av",
    "schoolCategory": "Public School"
  },
  {
    "name": "Dr A R Lord Elementary",
    "latitude": 49.2796404851544,
    "longitude": -123.03951720288,
    "address": "555 Lillooet St",
    "schoolCategory": "Public School"
  },
  {
    "name": "Dr Annie B Jamieson Elementary",
    "latitude": 49.226906936,
    "longitude": -123.12100426,
    "address": "6350 Tisdall St",
    "schoolCategory": "Public School"
  },
  {
    "name": "Dr George M Weir Elementary",
    "latitude": 49.22957876,
    "longitude": -123.04440254,
    "address": "2900 E 44th Av",
    "schoolCategory": "Public School"
  },
  {
    "name": "Dr H N MacCorkindale Elementary",
    "latitude": 49.2279901864655,
    "longitude": -123.029355035116,
    "address": "6100 Battison St",
    "schoolCategory": "Public School"
  },
  {
    "name": "Dr R E McKechnie Elementary",
    "latitude": 49.21770659,
    "longitude": -123.15401133,
    "address": "7455 Maple St",
    "schoolCategory": "Public School"
  },
  {
    "name": "Ecole Jules Quesnel Elementary",
    "latitude": 49.259567806,
    "longitude": -123.19253813,
    "address": "3050 Crown St",
    "schoolCategory": "Public School"
  },
  {
    "name": "Edith Cavell Elementary",
    "latitude": 49.25290711,
    "longitude": -123.11722884,
    "address": "500 W 20th Av",
    "schoolCategory": "Public School"
  },
  {
    "name": "Elsie Roy Elementary",
    "latitude": 49.272238,
    "longitude": -123.122482,
    "address": "150 Drake St",
    "schoolCategory": "Public School"
  },
  {
    "name": "Emily Carr Elementary",
    "latitude": 49.250041653,
    "longitude": -123.12609641,
    "address": "4070 Oak St",
    "schoolCategory": "Public School"
  },
  {
    "name": "Eric Hamber Secondary",
    "latitude": 49.239630962,
    "longitude": -123.12579096,
    "address": "5025 Willow St",
    "schoolCategory": "Public School"
  },
  {
    "name": "False Creek Elementary",
    "latitude": 49.267103112,
    "longitude": -123.12685921,
    "address": "900 School Green",
    "schoolCategory": "Public School"
  },
  {
    "name": "Family Montessori School",
    "latitude": 49.2676679832589,
    "longitude": -123.198246023388,
    "address": "4196 W 4th Av",
    "schoolCategory": "Independent School"
  },
  {
    "name": "Florence Nightingale Elementary",
    "latitude": 49.260059325,
    "longitude": -123.09371757,
    "address": "2740 Guelph St",
    "schoolCategory": "Public School"
  },
  {
    "name": "Florence Nightingale StrongStart Centre",
    "latitude": 49.260059325,
    "longitude": -123.09371757,
    "address": "2740 Guelph St",
    "schoolCategory": "StrongStart BC"
  },
  {
    "name": "Fraser Academy",
    "latitude": 49.2626607051257,
    "longitude": -123.157275960823,
    "address": "2294 W 10th Av",
    "schoolCategory": "Independent School"
  },
  {
    "name": "G F Strong School Program",
    "latitude": 49.239630962,
    "longitude": -123.12579096,
    "address": "5025 Willow St",
    "schoolCategory": "Public School"
  },
  {
    "name": "G T Cunningham Elementary",
    "latitude": 49.236732227,
    "longitude": -123.05745595,
    "address": "2330 E 37th Av",
    "schoolCategory": "Public School"
  },
  {
    "name": "Garibaldi Annex",
    "latitude": 49.275416392,
    "longitude": -123.05026877,
    "address": "1025 Slocan St",
    "schoolCategory": "Public School"
  },
  {
    "name": "General Brock Elementary",
    "latitude": 49.241215222,
    "longitude": -123.10063141,
    "address": "4860 Main St",
    "schoolCategory": "Public School"
  },
  {
    "name": "General Gordon Elementary",
    "latitude": 49.265979903,
    "longitude": -123.17067418,
    "address": "2896 W 6th Av",
    "schoolCategory": "Public School"
  },
  {
    "name": "General Wolfe Elementary",
    "latitude": 49.247228707,
    "longitude": -123.10596494,
    "address": "4251 Ontario St",
    "schoolCategory": "Public School"
  },
  {
    "name": "Gladstone Secondary",
    "latitude": 49.247612036,
    "longitude": -123.06163307,
    "address": "4105 Gladstone St",
    "schoolCategory": "Public School"
  },
  {
    "name": "Graham Bruce Community Elementary",
    "latitude": 49.242069088,
    "longitude": -123.02567271,
    "address": "3633 Tanner St",
    "schoolCategory": "Public School"
  },
  {
    "name": "Grandview Elementary",
    "latitude": 49.26619317,
    "longitude": -123.0743697,
    "address": "2055 Woodland Dr",
    "schoolCategory": "Public School"
  },
  {
    "name": "Hastings Community Elementary",
    "latitude": 49.2826109608204,
    "longitude": -123.050577408683,
    "address": "2625 Franklin St",
    "schoolCategory": "Public School"
  },
  {
    "name": "Henry Hudson Elementary",
    "latitude": 49.272245879,
    "longitude": -123.14935629,
    "address": "1551 Cypress St",
    "schoolCategory": "Public School"
  },
  {
    "name": "Immaculate Conception School",
    "latitude": 49.2475906134166,
    "longitude": -123.187707519251,
    "address": "3745 W 28th Av",
    "schoolCategory": "Independent School"
  },
  {
    "name": "Ivy Montessori School",
    "latitude": 49.2381148017827,
    "longitude": -123.162098287234,
    "address": "2490 W 37th Av",
    "schoolCategory": "Independent School"
  },
  {
    "name": "J.W. Sexsmith Community Elementary",
    "latitude": 49.217267793,
    "longitude": -123.10879442,
    "address": "7455 Ontario St",
    "schoolCategory": "Public School"
  },
  {
    "name": "John Henderson Annex",
    "latitude": 49.221042144,
    "longitude": -123.08804322,
    "address": "801 E 54th Av",
    "schoolCategory": "Public School"
  },
  {
    "name": "John Henderson Elementary",
    "latitude": 49.222569589,
    "longitude": -123.09527169,
    "address": "451 E 53rd Av",
    "schoolCategory": "Public School"
  },
  {
    "name": "John Henderson StrongStart Centre",
    "latitude": 49.221042144,
    "longitude": -123.08804322,
    "address": "801 E 54th Av",
    "schoolCategory": "StrongStart BC"
  },
  {
    "name": "John Norquay Elementary",
    "latitude": 49.241424696,
    "longitude": -123.0516408,
    "address": "4710 Slocan St",
    "schoolCategory": "Public School"
  },
  {
    "name": "John Oliver Secondary",
    "latitude": 49.231957151,
    "longitude": -123.09279776,
    "address": "530 E 41st Av",
    "schoolCategory": "Public School"
  },
  {
    "name": "Kerrisdale Annex",
    "latitude": 49.232868,
    "longitude": -123.177405,
    "address": "3250 W 43rd Av",
    "schoolCategory": "Public School"
  },
  {
    "name": "Kerrisdale Elementary",
    "latitude": 49.236168246,
    "longitude": -123.17345921,
    "address": "5555 Carnarvon St",
    "schoolCategory": "Public School"
  },
  {
    "name": "Killarney Secondary",
    "latitude": 49.225300105,
    "longitude": -123.04415722,
    "address": "6454 Killarney St",
    "schoolCategory": "Public School"
  },
  {
    "name": "King David High School",
    "latitude": 49.2334481832618,
    "longitude": -123.122790939785,
    "address": "5718 Willow St",
    "schoolCategory": "Independent School"
  },
  {
    "name": "King George Secondary",
    "latitude": 49.289824153,
    "longitude": -123.13644517,
    "address": "1755 Barclay St",
    "schoolCategory": "Public School"
  },
  {
    "name": "Kitsilano Secondary",
    "latitude": 49.262654773,
    "longitude": -123.16358941,
    "address": "2550 W 10th Av",
    "schoolCategory": "Public School"
  },
  {
    "name": "L'Ecole Bilingue Elementary",
    "latitude": 49.258084034,
    "longitude": -123.1303864,
    "address": "1166 W 14th Av",
    "schoolCategory": "Public School"
  },
  {
    "name": "Laura Secord Elementary",
    "latitude": 49.261735704,
    "longitude": -123.06022338,
    "address": "2500 Lakewood Drive",
    "schoolCategory": "Public School"
  },
  {
    "name": "Little Flower Academy",
    "latitude": 49.2484313427519,
    "longitude": -123.142261499139,
    "address": "4195 Alexandra St",
    "schoolCategory": "Independent School"
  },
  {
    "name": "Lord Beaconsfield Elementary",
    "latitude": 49.252138376,
    "longitude": -123.05269627,
    "address": "3663 Penticton St",
    "schoolCategory": "Public School"
  },
  {
    "name": "Lord Byng Secondary",
    "latitude": 49.2595665510185,
    "longitude": -123.192530952998,
    "address": "3939 W 16th Av",
    "schoolCategory": "Public School"
  },
  {
    "name": "Lord Kitchener Elementary",
    "latitude": 49.250581807306,
    "longitude": -123.180245562639,
    "address": "3455 W King Edward Av",
    "schoolCategory": "Public School"
  },
  {
    "name": "Lord Nelson Elementary",
    "latitude": 49.272507738,
    "longitude": -123.05971209,
    "address": "2235 Kitchener St",
    "schoolCategory": "Public School"
  },
  {
    "name": "Lord Nelson StrongStart Centre",
    "latitude": 49.272507738,
    "longitude": -123.05971209,
    "address": "2235 Kitchener St",
    "schoolCategory": "StrongStart BC"
  },
  {
    "name": "Lord Roberts Annex",
    "latitude": 49.283091711,
    "longitude": -123.12980601,
    "address": "1150 Nelson St",
    "schoolCategory": "Public School"
  },
  {
    "name": "Lord Roberts Elementary",
    "latitude": 49.286785283,
    "longitude": -123.13784476,
    "address": "1100 Bidwell St",
    "schoolCategory": "Public School"
  },
  {
    "name": "Lord Selkirk Annex",
    "latitude": 49.245320775,
    "longitude": -123.07246012,
    "address": "4444 Dumfries St",
    "schoolCategory": "Public School"
  },
  {
    "name": "Lord Selkirk Elementary",
    "latitude": 49.249691953,
    "longitude": -123.06900705,
    "address": "1750 E 22nd Av",
    "schoolCategory": "Public School"
  },
  {
    "name": "Lord Selkirk StrongStart Centre",
    "latitude": 49.249691953,
    "longitude": -123.06900705,
    "address": "1750 E 22nd Av",
    "schoolCategory": "StrongStart BC"
  },
  {
    "name": "Lord Strathcona Community Elementary",
    "latitude": 49.2798115155978,
    "longitude": -123.091476792421,
    "address": "592 E Pender St",
    "schoolCategory": "Public School"
  },
  {
    "name": "Lord Tennyson Elementary",
    "latitude": 49.262518935,
    "longitude": -123.14937705,
    "address": "1936 W 10th Av",
    "schoolCategory": "Public School"
  },
  {
    "name": "MacDonald StrongStart Centre",
    "latitude": 49.28072391,
    "longitude": -123.06467911,
    "address": "1950 E Hastings St",
    "schoolCategory": "StrongStart BC"
  },
  {
    "name": "Madrona School",
    "latitude": 49.263528261733,
    "longitude": -123.166010555295,
    "address": "2678 W Broadway",
    "schoolCategory": "Independent School"
  },
  {
    "name": "Magee Secondary",
    "latitude": 49.2285538659929,
    "longitude": -123.151537987609,
    "address": "6360 Maple St",
    "schoolCategory": "Public School"
  },
  {
    "name": "Maple Grove Elementary",
    "latitude": 49.2294087,
    "longitude": -123.15151486,
    "address": "6199 Cypress St",
    "schoolCategory": "Public School"
  },
  {
    "name": "Mount Pleasant Elementary",
    "latitude": 49.263965733,
    "longitude": -123.09399954,
    "address": "2300 Guelph St",
    "schoolCategory": "Public School"
  },
  {
    "name": "Mount Pleasant StrongStart Centre",
    "latitude": 49.263965733,
    "longitude": -123.09399954,
    "address": "2300 Guelph St",
    "schoolCategory": "StrongStart BC"
  },
  {
    "name": "Nootka Community Elementary",
    "latitude": 49.253592971,
    "longitude": -123.04294917,
    "address": "3375 Nootka St",
    "schoolCategory": "Public School"
  },
  {
    "name": "Norma Rose Point School",
    "latitude": 49.257791773,
    "longitude": -123.20112784,
    "address": "4102 W 16th Av",
    "schoolCategory": "Public School"
  },
  {
    "name": "Notre Dame Regional Secondary",
    "latitude": 49.275802840281,
    "longitude": -123.045566628089,
    "address": "2880 Venables St",
    "schoolCategory": "Independent School"
  },
  {
    "name": "Our Lady of Perpetual Help",
    "latitude": 49.2641350716028,
    "longitude": -123.196179430976,
    "address": "2550 Camosun St",
    "schoolCategory": "Independent School"
  },
  {
    "name": "Our Lady of Sorrows",
    "latitude": 49.2795712169531,
    "longitude": -123.050153704728,
    "address": "575 Slocan St",
    "schoolCategory": "Independent School"
  },
  {
    "name": "PALS Autism School",
    "latitude": 49.2805148104608,
    "longitude": -123.055954329925,
    "address": "2409 E Pender St",
    "schoolCategory": "Independent School"
  },
  {
    "name": "Pacific Rim Montessori Academy",
    "latitude": 49.2697857991998,
    "longitude": -123.162443645107,
    "address": "1819 Larch St",
    "schoolCategory": "Independent School"
  },
  {
    "name": "Pacific Spirit School",
    "latitude": 49.2676679832589,
    "longitude": -123.198246023388,
    "address": "4196 W 4th Av",
    "schoolCategory": "Independent School"
  },
  {
    "name": "Pacific Torah Institute",
    "latitude": 49.2334215672578,
    "longitude": -123.127612255099,
    "address": "5750 Oak St",
    "schoolCategory": "Independent School"
  },
  {
    "name": "Pacific Torah Institute International",
    "latitude": 49.2334215672578,
    "longitude": -123.127612255099,
    "address": "5750 Oak St",
    "schoolCategory": "Independent School"
  },
  {
    "name": "Pattison High School",
    "latitude": 49.2810836218889,
    "longitude": -123.125113318283,
    "address": "981 Nelson St",
    "schoolCategory": "Independent School"
  },
  {
    "name": "Pattison School",
    "latitude": 49.2810836218889,
    "longitude": -123.125113318283,
    "address": "981 Nelson St",
    "schoolCategory": "Independent School"
  },
  {
    "name": "Peak House",
    "latitude": 49.2632998832549,
    "longitude": -123.140260520019,
    "address": "1580 W Broadway",
    "schoolCategory": "Public School"
  },
  {
    "name": "Pierre Elliott Trudeau Elementary",
    "latitude": 49.214454005,
    "longitude": -123.096959,
    "address": "449 E 62nd Av",
    "schoolCategory": "Public School"
  },
  {
    "name": "Point Grey Secondary",
    "latitude": 49.2372890370463,
    "longitude": -123.153430604364,
    "address": "5350 East Boulevard",
    "schoolCategory": "Public School"
  },
  {
    "name": "Prince of Wales Secondary",
    "latitude": 49.244983054,
    "longitude": -123.15953565,
    "address": "2250 Eddington Drive",
    "schoolCategory": "Public School"
  },
  {
    "name": "Prov. Early Intervention Resource Prg",
    "latitude": 49.2363486,
    "longitude": -123.032313,
    "address": "3417 Euclid Av",
    "schoolCategory": "Public School"
  },
  {
    "name": "Queen Alexandra Elementary",
    "latitude": 49.26197055,
    "longitude": -123.07592057,
    "address": "1300 E Broadway",
    "schoolCategory": "Public School"
  },
  {
    "name": "Queen Alexandra StrongStart Centre",
    "latitude": 49.26197055,
    "longitude": -123.07592057,
    "address": "1300 E Broadway",
    "schoolCategory": "StrongStart BC"
  },
  {
    "name": "Queen Elizabeth Annex",
    "latitude": 49.24893678,
    "longitude": -123.19469107,
    "address": "4275 Crown St",
    "schoolCategory": "Public School"
  },
  {
    "name": "Queen Elizabeth Elementary",
    "latitude": 49.257791773,
    "longitude": -123.20112784,
    "address": "4102 W 16th Av",
    "schoolCategory": "Public School"
  },
  {
    "name": "Queen Mary Elementary",
    "latitude": 49.267856423,
    "longitude": -123.20479699,
    "address": "2000 Trimble St",
    "schoolCategory": "Public School"
  },
  {
    "name": "Queen Victoria Annex",
    "latitude": 49.26718785,
    "longitude": -123.06634874,
    "address": "1850 E 3rd Av",
    "schoolCategory": "Public School"
  },
  {
    "name": "Quilchena Elementary",
    "latitude": 49.237246211,
    "longitude": -123.15157081,
    "address": "5300 Maple St",
    "schoolCategory": "Public School"
  },
  {
    "name": "Renfrew Community Elementary",
    "latitude": 49.251457775,
    "longitude": -123.03205805,
    "address": "3315 E 22nd Av",
    "schoolCategory": "Public School"
  },
  {
    "name": "Royal Canadian College",
    "latitude": 49.2072420159486,
    "longitude": -123.118607745942,
    "address": "8610 Ash St",
    "schoolCategory": "Independent School"
  },
  {
    "name": "SD 39 DL Elementary",
    "latitude": 49.275416392,
    "longitude": -123.05026877,
    "address": "1025 Slocan St",
    "schoolCategory": "Public School"
  },
  {
    "name": "Shaughnessy Elementary",
    "latitude": 49.248676076,
    "longitude": -123.14380998,
    "address": "4250 Marguerite St",
    "schoolCategory": "Public School"
  },
  {
    "name": "Simon Fraser Elementary",
    "latitude": 49.2571713563496,
    "longitude": -123.108196899433,
    "address": "100 W 15th Av",
    "schoolCategory": "Public School"
  },
  {
    "name": "Sir Alexander Mackenzie Elementary",
    "latitude": 49.234536436,
    "longitude": -123.08671432,
    "address": "960 E 39th Av",
    "schoolCategory": "Public School"
  },
  {
    "name": "Sir Alexander Mackenzie StrongStart",
    "latitude": 49.234536436,
    "longitude": -123.08671432,
    "address": "960 E 39th Av",
    "schoolCategory": "StrongStart BC"
  },
  {
    "name": "Sir Charles Kingsford-Smith",
    "latitude": 49.221596674,
    "longitude": -123.0557042,
    "address": "6901 Elliott St",
    "schoolCategory": "Public School"
  },
  {
    "name": "Sir Charles Tupper Secondary",
    "latitude": 49.249753502,
    "longitude": -123.09480948,
    "address": "419 E 24th Av",
    "schoolCategory": "Public School"
  },
  {
    "name": "Sir Guy Carleton Community Elementary",
    "latitude": 49.234347747,
    "longitude": -123.03760798,
    "address": "3250 Kingsway",
    "schoolCategory": "Public School"
  },
  {
    "name": "Sir James Douglas Annex",
    "latitude": 49.214830465,
    "longitude": -123.07329351,
    "address": "7668 Borden St",
    "schoolCategory": "Public School"
  },
  {
    "name": "Sir James Douglas Elementary",
    "latitude": 49.216049329624,
    "longitude": -123.064653176748,
    "address": "2150 Brigadoon Av",
    "schoolCategory": "Public School"
  },
  {
    "name": "Sir John Franklin Community",
    "latitude": 49.282496197,
    "longitude": -123.02758566,
    "address": "250S Skeena St",
    "schoolCategory": "Public School"
  },
  {
    "name": "Sir Matthew Begbie Elementary",
    "latitude": 49.2718308007739,
    "longitude": -123.038010037124,
    "address": "1430 Lillooet St",
    "schoolCategory": "Public School"
  },
  {
    "name": "Sir Richard McBride Annex",
    "latitude": 49.2419442301445,
    "longitude": -123.084950188923,
    "address": "4750 St. Catherines St",
    "schoolCategory": "Public School"
  },
  {
    "name": "Sir Richard McBride Elementary",
    "latitude": 49.24415661,
    "longitude": -123.07817551,
    "address": "1300 E 29th Av",
    "schoolCategory": "Public School"
  },
  {
    "name": "Sir Sandford Fleming Elementary",
    "latitude": 49.22574769,
    "longitude": -123.07657409,
    "address": "1401 E 49th Av",
    "schoolCategory": "Public School"
  },
  {
    "name": "Sir Wilfred Grenfell Community",
    "latitude": 49.2428916216093,
    "longitude": -123.034807374541,
    "address": "3323 Wellington Av",
    "schoolCategory": "Public School"
  },
  {
    "name": "Sir Wilfred Grenfell StrongStart Centre",
    "latitude": 49.2428916216093,
    "longitude": -123.034807374541,
    "address": "3323 Wellington Av",
    "schoolCategory": "StrongStart BC"
  },
  {
    "name": "Sir Wilfrid Laurier Annex",
    "latitude": 49.210717996,
    "longitude": -123.1194453,
    "address": "590 W 65th Av",
    "schoolCategory": "Public School"
  },
  {
    "name": "Sir Wilfrid Laurier Elementary",
    "latitude": 49.217762535,
    "longitude": -123.12504721,
    "address": "7350 Laurel St",
    "schoolCategory": "Public School"
  },
  {
    "name": "Sir William Macdonald Community",
    "latitude": 49.28072391,
    "longitude": -123.06467911,
    "address": "1950 E Hastings St",
    "schoolCategory": "Public School"
  },
  {
    "name": "Sir William Osler Elementary",
    "latitude": 49.230762423,
    "longitude": -123.13266216,
    "address": "5970 Selkirk St",
    "schoolCategory": "Public School"
  },
  {
    "name": "Sir Winston Churchill Secondary",
    "latitude": 49.221059569,
    "longitude": -123.12561546,
    "address": "7055 Heather St",
    "schoolCategory": "Public School"
  },
  {
    "name": "Sir Wm Van Horne Elementary",
    "latitude": 49.231566487,
    "longitude": -123.10656921,
    "address": "5855 Ontario St",
    "schoolCategory": "Public School"
  },
  {
    "name": "Southlands Elementary",
    "latitude": 49.238137586,
    "longitude": -123.19781516,
    "address": "5351 Camosun St",
    "schoolCategory": "Public School"
  },
  {
    "name": "St Andrew's",
    "latitude": 49.2272136123886,
    "longitude": -123.095855890383,
    "address": "450 E 47th Av",
    "schoolCategory": "Independent School"
  },
  {
    "name": "St Anthony of Padua",
    "latitude": 49.2044649391217,
    "longitude": -123.137007920368,
    "address": "1370 W 73rd Av",
    "schoolCategory": "Independent School"
  },
  {
    "name": "St Augustine's",
    "latitude": 49.2651725524681,
    "longitude": -123.153552242595,
    "address": "2145 W 8th Av",
    "schoolCategory": "Independent School"
  },
  {
    "name": "St Francis Xavier",
    "latitude": 49.2664623120074,
    "longitude": -123.094520644228,
    "address": "428 Great Northern Way",
    "schoolCategory": "Independent School"
  },
  {
    "name": "St Francis of Assisi",
    "latitude": 49.2768816356759,
    "longitude": -123.065048588754,
    "address": "870 Victoria Drive",
    "schoolCategory": "Independent School"
  },
  {
    "name": "St George's School",
    "latitude": 49.2475822683914,
    "longitude": -123.198464963885,
    "address": "4175 W 29th Av",
    "schoolCategory": "Independent School"
  },
  {
    "name": "St John's International",
    "latitude": 49.2640409813726,
    "longitude": -123.147898816144,
    "address": "1885 W Broadway",
    "schoolCategory": "Independent School"
  },
  {
    "name": "St John's School",
    "latitude": 49.2631776724231,
    "longitude": -123.156179142807,
    "address": "2215 W 10th Av",
    "schoolCategory": "Independent School"
  },
  {
    "name": "St Joseph's",
    "latitude": 49.2559144091774,
    "longitude": -123.071647052346,
    "address": "3261 Fleming St",
    "schoolCategory": "Independent School"
  },
  {
    "name": "St Jude's",
    "latitude": 49.2565457876236,
    "longitude": -123.04262672835,
    "address": "2953 E 15th Av",
    "schoolCategory": "Independent School"
  },
  {
    "name": "St Mary's",
    "latitude": 49.2375016320813,
    "longitude": -123.033705908929,
    "address": "5239 Joyce St",
    "schoolCategory": "Independent School"
  },
  {
    "name": "St Patrick Regional Secondary",
    "latitude": 49.2614045454822,
    "longitude": -123.10260439172,
    "address": "115 E 11th Av",
    "schoolCategory": "Independent School"
  },
  {
    "name": "St Patrick's Elementary",
    "latitude": 49.259762303763,
    "longitude": -123.102436696744,
    "address": "2850 Quebec St",
    "schoolCategory": "Independent School"
  },
  {
    "name": "Stratford Hall",
    "latitude": 49.2574692164777,
    "longitude": -123.06946327228,
    "address": "3000 Commercial Drive",
    "schoolCategory": "Independent School"
  },
  {
    "name": "Sunny Hill Hospital Program",
    "latitude": 49.246512457,
    "longitude": -123.0371743,
    "address": "3155 E 27th Av",
    "schoolCategory": "Public School"
  },
  {
    "name": "Tecumseh Annex",
    "latitude": 49.237116273,
    "longitude": -123.07309884,
    "address": "1551 E 37th Av",
    "schoolCategory": "Public School"
  },
  {
    "name": "Tecumseh Elementary",
    "latitude": 49.232055743,
    "longitude": -123.06800394,
    "address": "1850 E 41st Av",
    "schoolCategory": "Public School"
  },
  {
    "name": "Templeton Secondary",
    "latitude": 49.278439094,
    "longitude": -123.06069106,
    "address": "727 Templeton Drive",
    "schoolCategory": "Public School"
  },
  {
    "name": "The Westside School",
    "latitude": 49.2775706452436,
    "longitude": -123.113443543476,
    "address": "788 Beatty St",
    "schoolCategory": "Independent School"
  },
  {
    "name": "Thunderbird Elementary",
    "latitude": 49.2636488913338,
    "longitude": -123.031870585582,
    "address": "2325 Cassiar St",
    "schoolCategory": "Public School"
  },
  {
    "name": "Thunderbird StrongStart Centre",
    "latitude": 49.2636488913338,
    "longitude": -123.031870585582,
    "address": "2325 Cassiar St",
    "schoolCategory": "StrongStart BC"
  },
  {
    "name": "Tillicum Annex StrongStart Centre",
    "latitude": 49.286263456,
    "longitude": -123.05559853,
    "address": "2450 Cambridge St",
    "schoolCategory": "StrongStart BC"
  },
  {
    "name": "Tillicum Community Annex",
    "latitude": 49.286263456,
    "longitude": -123.05559853,
    "address": "2450 Cambridge St",
    "schoolCategory": "Public School"
  },
  {
    "name": "Trafalgar Elementary",
    "latitude": 49.250178757,
    "longitude": -123.16460607,
    "address": "4170 Trafalgar St",
    "schoolCategory": "Public School"
  },
  {
    "name": "Tyee Elementary",
    "latitude": 49.253569355,
    "longitude": -123.07382164,
    "address": "3525 Dumphries St",
    "schoolCategory": "Public School"
  },
  {
    "name": "Vancouver Alternate",
    "latitude": 49.2632998832549,
    "longitude": -123.140260520019,
    "address": "1580 W Broadway",
    "schoolCategory": "Public School"
  },
  {
    "name": "Vancouver Christian",
    "latitude": 49.2547122168466,
    "longitude": -123.028566931121,
    "address": "3496 Mons Drive",
    "schoolCategory": "Independent School"
  },
  {
    "name": "Vancouver College",
    "latitude": 49.2349594197011,
    "longitude": -123.136171334451,
    "address": "5400 Cartier St",
    "schoolCategory": "Independent School"
  },
  {
    "name": "Vancouver College DL",
    "latitude": 49.2349594197011,
    "longitude": -123.136171334451,
    "address": "5400 Cartier St",
    "schoolCategory": "Independent School"
  },
  {
    "name": "Vancouver Formosa Academy",
    "latitude": 49.2337474220648,
    "longitude": -123.04636736023,
    "address": "5621 Killarney St",
    "schoolCategory": "Independent School"
  },
  {
    "name": "Vancouver Hebrew Academy",
    "latitude": 49.2154717285097,
    "longitude": -123.141369264784,
    "address": "1545 W 62nd Av",
    "schoolCategory": "Independent School"
  },
  {
    "name": "Vancouver Learning Network",
    "latitude": 49.231957151,
    "longitude": -123.09279776,
    "address": "530 E 41st Av",
    "schoolCategory": "Public School"
  },
  {
    "name": "Vancouver Montessori School",
    "latitude": 49.2077903968405,
    "longitude": -123.14463359946,
    "address": "8650 Barnard St",
    "schoolCategory": "Independent School"
  },
  {
    "name": "Vancouver Talmud Torah Elementary",
    "latitude": 49.2475796727992,
    "longitude": -123.126822021188,
    "address": "998 W 26th Av",
    "schoolCategory": "Independent School"
  },
  {
    "name": "Vancouver Technical Secondary",
    "latitude": 49.260755476,
    "longitude": -123.05129984,
    "address": "2600 E Broadway",
    "schoolCategory": "Public School"
  },
  {
    "name": "Walter Moberly Elementary",
    "latitude": 49.216109231,
    "longitude": -123.08434542,
    "address": "1000 E 59th Av",
    "schoolCategory": "Public School"
  },
  {
    "name": "Walter Moberly StrongStart Centre",
    "latitude": 49.216109231,
    "longitude": -123.08434542,
    "address": "1000 E 59th Av",
    "schoolCategory": "StrongStart BC"
  },
  {
    "name": "Waverley Elementary",
    "latitude": 49.227837226,
    "longitude": -123.05578593,
    "address": "6111 Elliott St",
    "schoolCategory": "Public School"
  },
  {
    "name": "Waverley StrongStart Centre",
    "latitude": 49.227837226,
    "longitude": -123.05578593,
    "address": "6111 Elliott St",
    "schoolCategory": "StrongStart BC"
  },
  {
    "name": "West Coast Christian School",
    "latitude": 49.2849844671666,
    "longitude": -123.044536123333,
    "address": "15 N Renfrew St",
    "schoolCategory": "Independent School"
  },
  {
    "name": "West Point Grey Academy",
    "latitude": 49.2670663460761,
    "longitude": -123.201507393654,
    "address": "4125 W 8th Av",
    "schoolCategory": "Independent School"
  },
  {
    "name": "Westside Montessori",
    "latitude": 49.2485741276852,
    "longitude": -123.128000105036,
    "address": "4157 Oak St",
    "schoolCategory": "Independent School"
  },
  {
    "name": "Westside Montessori Academy",
    "latitude": 49.256937848504,
    "longitude": -123.050391949247,
    "address": "3075 Slocan St",
    "schoolCategory": "Independent School"
  },
  {
    "name": "Windermere Community Secondary",
    "latitude": 49.246512457,
    "longitude": -123.0371743,
    "address": "3155 E 27th Av",
    "schoolCategory": "Public School"
  },
  {
    "name": "York House Little School",
    "latitude": 49.25671,
    "longitude": -123.152101,
    "address": "3274 East Boulevard",
    "schoolCategory": "Independent School"
  },
  {
    "name": "York House School",
    "latitude": 49.2488482199143,
    "longitude": -123.140340136115,
    "address": "4176 Alexandra St",
    "schoolCategory": "Independent School"
  }
]
